{"version": 0.6, "generator": "Overpass API 0.7.62.5 1bd436f1", "osm3s": {"timestamp_osm_base": "2025-04-16T18:53:33Z", "copyright": "The data included in this document is from www.openstreetmap.org. The data is made available under ODbL."}, "elements": [{"type": "node", "id": 426864231, "lat": 58.1405232, "lon": -4.9298893, "tags": {"name": "Uamh an Tartair", "natural": "cave_entrance", "source:name": "knowledge"}}, {"type": "node", "id": 426864233, "lat": 58.1429634, "lon": -4.9395732, "tags": {"name": "Lower Traligill Cave", "natural": "cave_entrance"}}, {"type": "node", "id": 426864236, "lat": 58.1406719, "lon": -4.9306281, "tags": {"name": "Waterslide Cave", "name:gd": "Uamh an Uisge", "natural": "cave_entrance", "source:name": "knowledge"}}, {"type": "node", "id": 429964821, "lat": 58.1080532, "lon": -4.9406077, "tags": {"name": "Reindeer Cave", "natural": "cave_entrance"}}, {"type": "node", "id": 429964823, "lat": 58.1060038, "lon": -4.9395137, "tags": {"name": "Rana Hole", "natural": "cave_entrance"}}, {"type": "node", "id": 1781814463, "lat": 58.1080464, "lon": -4.9409029, "tags": {"name": "Badger Cave", "natural": "cave_entrance"}}, {"type": "node", "id": 1781814464, "lat": 58.1080464, "lon": -4.9403435, "tags": {"name": "Bone Cave", "natural": "cave_entrance"}}, {"type": "node", "id": 1781814465, "lat": 58.1080568, "lon": -4.9399215, "tags": {"name": "Fox's Den", "natural": "cave_entrance"}}, {"type": "node", "id": 1935839558, "lat": 58.1042841, "lon": -4.9359606, "tags": {"name": "Uamh an Claonaite", "natural": "cave_entrance", "source": "Bing", "wikidata": "Q390332", "wikipedia": "en:Uamh an Claonaite"}}, {"type": "node", "id": 1935839602, "lat": 58.1091709, "lon": -4.9310164, "tags": {"name": "Allt nan Uamh Stream Cave", "natural": "cave_entrance", "source": "knowledge"}}, {"type": "node", "id": 1935839603, "lat": 58.1017615, "lon": -4.9335967, "tags": {"name": "Campbell's Cave", "natural": "cave_entrance", "source": "Bing"}}, {"type": "node", "id": 4209600989, "lat": 58.1313057, "lon": -4.9197678, "tags": {"name": "Storm Cave", "natural": "cave_entrance", "source": "survey"}}, {"type": "node", "id": 4209612468, "lat": 58.1443059, "lon": -4.942575, "tags": {"name": "Tree Hole", "natural": "cave_entrance", "source": "survey"}}, {"type": "node", "id": 4708116915, "lat": 58.3873471, "lon": -5.1746581, "tags": {"natural": "cave_entrance"}}, {"type": "node", "id": 6216846427, "lat": 58.1089525, "lon": -4.9318512, "tags": {"alt_name": "UNCABAC", "name": "Uamh nan Clogaid a' Bha Air Chall", "natural": "cave_entrance", "source": "Bing"}}, {"type": "node", "id": 6216846428, "lat": 58.1512764, "lon": -4.9621187, "tags": {"name": "Cripples Canyon", "natural": "cave_entrance", "source": "Bing"}}, {"type": "node", "id": 6216846429, "lat": 58.1512389, "lon": -4.9619517, "tags": {"name": "Uamh Chalaman", "natural": "cave_entrance", "source": "Bing"}}]}