{"version": 0.6, "generator": "Overpass API 0.7.62.5 1bd436f1", "osm3s": {"timestamp_osm_base": "2025-04-16T18:53:33Z", "copyright": "The data included in this document is from www.openstreetmap.org. The data is made available under ODbL."}, "elements": [{"type": "node", "id": 271086260, "lat": 51.7982119, "lon": -3.5572159, "tags": {"name": "Porth yr Ogof Resurgence (N)", "natural": "cave_entrance"}}, {"type": "node", "id": 271086261, "lat": 51.8001763, "lon": -3.5559028, "tags": {"direction": "160", "fee": "no", "name": "Porth yr Ogof", "natural": "cave_entrance", "wikidata": "Q7231745"}}, {"type": "node", "id": 290454950, "lat": 51.8006259, "lon": -3.5554927, "tags": {"fee": "no", "name": "Tradesman's Entrance (C)", "natural": "cave_entrance"}}, {"type": "node", "id": 394159426, "lat": 51.8299443, "lon": -3.6505495, "tags": {"cave:access": "key", "cave:depth": "274.5 m", "cave:difficulty": "dangerous", "cave:equipment": "climbing_gear", "cave:length": "59 km", "cave:size": "large", "cave:through_trip": "yes", "description": "Top entrance to the Ogof Ffynnon Ddu system", "fee": "no", "name": "Ogof y nos hir, Ogof Ffynnon Ddu (OFD) top entrance", "natural": "cave_entrance", "source": "survey", "website": "https://en.wikipedia.org/wiki/Ogof_Ffynnon_Ddu"}}, {"type": "node", "id": 394159461, "lat": 51.8326525, "lon": -3.6110947, "tags": {"name": "Pant Mawr", "natural": "cave_entrance", "source": "survey"}}, {"type": "node", "id": 552317257, "lat": 51.8272364, "lon": -3.6594787, "tags": {"cave:access": "key", "cave:difficulty": "dangerous", "cave:equipment": "climbing_gear", "cave:size": "large", "cave:through_trip": "yes", "description": "Middle entrance to Ogof Ffynnon Ddu system", "name": "Cwm Dwr (OFD)", "natural": "cave_entrance", "website": "https://en.wikipedia.org/wiki/Ogof_Ffynnon_Ddu"}}, {"type": "node", "id": 1129718349, "lat": 51.8317587, "lon": -4.0256692, "tags": {"natural": "cave_entrance"}}, {"type": "node", "id": 1129718938, "lat": 51.8315335, "lon": -4.025076, "tags": {"natural": "cave_entrance"}}, {"type": "node", "id": 1282563414, "lat": 51.5898992, "lon": -4.1123902, "tags": {"name": "Cathole Cave", "natural": "cave_entrance", "wikidata": "Q27957427", "wikipedia": "en:Cathole cave"}}, {"type": "node", "id": 1493852942, "lat": 51.5789481, "lon": -4.0590042, "tags": {"name": "Guzzle Hole", "natural": "cave_entrance"}}, {"type": "node", "id": 1533280895, "lat": 51.8310621, "lon": -3.6865943, "tags": {"name": "Dan-Yr-Ogof", "natural": "cave_entrance", "wikidata": "Q3405158", "wikipedia": "en:Dan yr Ogof"}}, {"type": "node", "id": 1541552926, "lat": 51.815858, "lon": -3.5800942, "tags": {"name": "Little neath River Cave", "natural": "cave_entrance"}}, {"type": "node", "id": 1541557003, "lat": 51.8140237, "lon": -3.580491, "tags": {"name": "Bridge Cave", "natural": "cave_entrance"}}, {"type": "node", "id": 1541557008, "lat": 51.8120605, "lon": -3.5805392, "tags": {"name": "Pwll Y Rhyd Cave", "natural": "cave_entrance"}}, {"type": "node", "id": 1541559943, "lat": 51.811108, "lon": -3.5809204, "tags": {"name": "White Lady Cave", "natural": "cave_entrance"}}, {"type": "node", "id": 1558655841, "lat": 51.8232225, "lon": -3.6732419, "tags": {"cave:access": "key", "cave:difficulty": "dangerous", "cave:equipment": "climbing_gear", "cave:size": "large", "cave:through_trip": "yes", "name": "Ogof Ffynnon Ddu (OFD) bottom entrance", "natural": "cave_entrance"}}, {"type": "node", "id": 1751862317, "lat": 51.8498695, "lon": -3.7982053, "tags": {"access": "yes", "description": "Cave entrance for Ogof Pwll Swnd, a 1410m long cave with numerous chambers. First explored in 1939 by Mr A A Hill and Miss G Taylor after the location of the cave was shown to them by a local shepherd.", "direction": "75", "ele": "566", "fee": "no", "name": "Ogof Pwll Swnd", "natural": "cave_entrance", "note": "http://www.ogof.org.uk/ogof-pwll-swnd.html", "source": "http://www.ogof.org.uk/ogof-pwll-swnd.html;survey;gps"}}, {"type": "node", "id": 1771517263, "lat": 51.5620449, "lon": -4.0782742, "tags": {"name": "Bacon Hole", "natural": "cave_entrance"}}, {"type": "node", "id": 2493702327, "lat": 51.537225, "lon": -4.210449, "tags": {"natural": "cave_entrance"}}, {"type": "node", "id": 2493702328, "lat": 51.53725, "lon": -4.209986, "tags": {"natural": "cave_entrance"}}, {"type": "node", "id": 2866464841, "lat": 51.5686965, "lon": -4.1226134, "tags": {"name": "Leather's Hole", "natural": "cave_entrance"}}, {"type": "node", "id": 5188414469, "lat": 51.7987571, "lon": -3.5569265, "tags": {"natural": "cave_entrance"}}, {"type": "node", "id": 5501923329, "lat": 51.8083735, "lon": -3.5814996, "tags": {"name": "Zig Zag Cave", "natural": "cave_entrance"}}, {"type": "node", "id": 7927973050, "lat": 51.8526532, "lon": -3.804862, "tags": {"access": "yes", "ele": "574", "fee": "no", "name": "Dan Y Lleuad Wen", "natural": "cave_entrance", "note": "http://www.ogof.org.uk/ogof-dan-y-lleuad-wen.html", "source": "gps"}}, {"type": "node", "id": 9134293244, "lat": 51.8348747, "lon": -3.694791, "tags": {"access": "yes", "cave:access": "yes", "cave:depth": "97 m", "cave:difficulty": "dangerous", "cave:equipment": "climbing_gear", "cave:length": "89 m", "ele": "398", "fee": "no", "name": "Pwll Dwfn", "name:cy": "Pwll Dwfn", "natural": "cave_entrance", "website": "https://en.wikipedia.org/wiki/Pwll_Dwfn", "wikidata": "Q7262766", "wikipedia": "en:Pwll Dwfn"}}, {"type": "node", "id": 10073737810, "lat": 51.7987379, "lon": -3.5568399, "tags": {"natural": "cave_entrance"}}, {"type": "node", "id": 11676281849, "lat": 51.7696166, "lon": -3.597289, "tags": {"natural": "cave_entrance"}}]}