{"version": 0.6, "generator": "Overpass API 0.7.62.5 1bd436f1", "osm3s": {"timestamp_osm_base": "2025-04-16T22:02:00Z", "copyright": "The data included in this document is from www.openstreetmap.org. The data is made available under ODbL."}, "elements": [{"type": "node", "id": 9167607065, "lat": 55.6908267, "lon": -5.2018594, "tags": {"name": "Crogan", "natural": "hill", "place": "locality"}}, {"type": "node", "id": 9167607066, "lat": 55.6647537, "lon": -5.212996, "tags": {"name": "Creag Ghlas", "natural": "hill", "place": "locality"}}, {"type": "node", "id": 9167607067, "lat": 55.6610138, "lon": -5.2398395, "tags": {"name": "Creag Dhubh", "natural": "hill", "place": "locality"}}, {"type": "node", "id": 9167607069, "lat": 55.683932, "lon": -5.1746082, "tags": {"name": "Creag nam Maol", "natural": "hill", "place": "locality"}}, {"type": "node", "id": 9167607070, "lat": 55.6790809, "lon": -5.1729774, "tags": {"name": "Creagan Liatha", "natural": "hill", "place": "locality"}}, {"type": "node", "id": 9167607071, "lat": 55.6781372, "lon": -5.1656603, "tags": {"name": "Leac Gharbh", "natural": "hill", "place": "locality"}}]}