{"version": 0.6, "generator": "Overpass API 0.7.62.5 1bd436f1", "osm3s": {"timestamp_osm_base": "2025-04-16T22:03:00Z", "copyright": "The data included in this document is from www.openstreetmap.org. The data is made available under ODbL."}, "elements": [{"type": "node", "id": 4158350004, "lat": 56.6318749, "lon": -2.6775484, "tags": {"ele": "45", "name": "Kaim Hill", "natural": "hill", "place": "locality"}}, {"type": "node", "id": 5248768459, "lat": 56.6275814, "lon": -2.8060895, "tags": {"ele": "138", "name": "Castle Hill", "natural": "hill", "place": "locality"}}, {"type": "node", "id": 5284488518, "lat": 56.6250754, "lon": -2.7633683, "tags": {"ele": "95", "name": "Arbrie Hill", "natural": "hill", "place": "locality"}}, {"type": "node", "id": 5321188325, "lat": 56.6317341, "lon": -2.688564, "tags": {"ele": "50", "name": "Finger Hill", "natural": "hill", "place": "locality"}}, {"type": "node", "id": 5375409035, "lat": 56.6144019, "lon": -2.7673715, "tags": {"alt_name": "Law Hill", "ele": "140", "name": "The Law", "natural": "hill", "place": "locality"}}, {"type": "node", "id": 5696374634, "lat": 56.6192213, "lon": -2.7983201, "tags": {"ele": "125", "name": "Craig Head", "natural": "hill", "place": "locality"}}, {"type": "node", "id": 6356977642, "lat": 56.6394292, "lon": -2.7439966, "tags": {"name": "Whinny Hill", "natural": "hill", "place": "locality"}}, {"type": "node", "id": 6356977643, "lat": 56.6451516, "lon": -2.7495326, "tags": {"name": "Priest's Hillock", "natural": "hill", "place": "locality"}}, {"type": "node", "id": 6356977682, "lat": 56.6375995, "lon": -2.7938368, "tags": {"name": "Kippock Knowe", "natural": "hill", "place": "locality"}}, {"type": "node", "id": 6430898303, "lat": 56.5900215, "lon": -2.7855226, "tags": {"ele": "185", "name": "Gallows Hill", "natural": "hill", "place": "locality"}}, {"type": "node", "id": 6430898307, "lat": 56.6202444, "lon": -2.7325221, "tags": {"name": "Manse Knowe", "natural": "hill", "place": "locality"}}, {"type": "node", "id": 6480863126, "lat": 56.6354313, "lon": -2.6965047, "tags": {"ele": "50", "name": "Gallows Hill", "name:sco": "Gallows Law", "natural": "hill", "place": "locality"}}, {"type": "node", "id": 6480863129, "lat": 56.6291527, "lon": -2.6814951, "tags": {"ele": "60", "name": "The Hill", "natural": "hill", "place": "locality"}}, {"type": "node", "id": 6480863130, "lat": 56.6273881, "lon": -2.6931359, "tags": {"ele": "70", "name": "Crow Hill", "natural": "hill", "place": "locality"}}, {"type": "node", "id": 6480863163, "lat": 56.6143032, "lon": -2.7505679, "tags": {"ele": "157", "name": "Idvies Hill", "natural": "hill", "place": "locality"}}, {"type": "node", "id": 6530527280, "lat": 56.6541554, "lon": -2.802283, "tags": {"ele": "67", "name": "Kirk Hill", "natural": "hill", "place": "locality"}}, {"type": "node", "id": 6530549720, "lat": 56.6524493, "lon": -2.7685907, "tags": {"ele": "76", "name": "Gallows Hill", "natural": "hill"}}, {"type": "node", "id": 6530585439, "lat": 56.6440717, "lon": -2.7561322, "tags": {"ele": "77", "name": "Moore's Hill", "natural": "hill", "place": "locality"}}, {"type": "node", "id": 6582308487, "lat": 56.5823886, "lon": -2.7446298, "tags": {"ele": "179", "name": "Fairyfold Hillock", "natural": "hill", "place": "locality"}}, {"type": "node", "id": 11793683447, "lat": 56.5840035, "lon": -2.5820852, "tags": {"name": "Gallows Hill", "natural": "hill"}}]}