{"version": 0.6, "generator": "Overpass API 0.7.62.5 1bd436f1", "osm3s": {"timestamp_osm_base": "2025-04-16T18:55:41Z", "copyright": "The data included in this document is from www.openstreetmap.org. The data is made available under ODbL."}, "elements": [{"type": "node", "id": 26421469, "lat": 53.3454901, "lon": -1.8034563, "tags": {"access": "customers", "charge": "15 GBP", "direction": "0", "fee": "yes", "name": "Blue John Cavern", "natural": "cave_entrance", "payment:cash": "yes", "payment:credit_cards": "yes", "tourism": "attraction", "website": "https://www.bluejohn-cavern.co.uk/", "wikidata": "Q4929299", "wikipedia": "en:Blue John Cavern"}}, {"type": "node", "id": 255174399, "lat": 53.3450642, "lon": -1.7971699, "tags": {"access": "customers", "addr:city": "Hope Valley", "addr:country": "GB", "addr:postcode": "S33 8WP", "addr:suburb": "Castleton", "charge": "15.00 GBP", "check_date:opening_hours": "2024-06-07", "fee": "yes", "fee:conditional": "no @ age < 5", "name": "Treak Cliff Cavern", "natural": "cave_entrance", "opening_hours": "Mar 01-Oct 31 9:30-17:00; Nov 01-Feb 28 10:00-16:00; Jan 01 12:00-16:00; Dec 25-26 off", "payment:cash": "yes", "payment:credit_cards": "yes", "tourism": "attraction", "website": "https://bluejohnstone.com/", "wikidata": "Q7836588", "wikipedia": "en:Treak Cliff Cavern"}}, {"type": "node", "id": 255174652, "lat": 53.3401352, "lon": -1.7784394, "tags": {"name": "Devil's Arse (Peak Cavern)", "natural": "cave_entrance", "tourism": "attraction", "wikidata": "Q7157810", "wikipedia": "en:Peak Cavern"}}, {"type": "node", "id": 345849923, "lat": 53.3347448, "lon": -1.8133129, "tags": {"created_by": "Merkaartor 0.12", "name": "Nettle Pot", "natural": "cave_entrance"}}, {"type": "node", "id": 361061810, "lat": 53.2501141, "lon": -1.9263169, "tags": {"name": "Poole's Cavern", "natural": "cave_entrance", "toilets:wheelchair": "yes", "tourism": "attraction", "wheelchair": "limited", "wikidata": "Q15267449"}}, {"type": "node", "id": 376075055, "lat": 53.3332856, "lon": -1.7932164, "tags": {"access": "private", "created_by": "Merkaartor 0.13", "name": "Titan Shaft", "natural": "cave_entrance"}}, {"type": "node", "id": 376089640, "lat": 53.3328933, "lon": -1.8395643, "tags": {"access": "private", "alt_name": "Jackpot", "name": "P8", "natural": "cave_entrance", "source": "survey"}}, {"type": "node", "id": 1917556424, "lat": 53.375863, "lon": -1.8976864, "tags": {"access": "yes", "alt_name": "The Belfry", "cave:size": "small", "fee": "no", "name": "Kinderlow Cavern", "natural": "cave_entrance"}}, {"type": "node", "id": 2100196554, "lat": 53.3486604, "lon": -1.6345254, "tags": {"name": "Robin Hood's Cave", "natural": "cave_entrance", "source": "local_knowledge"}}, {"type": "node", "id": 3352829745, "lat": 53.2385909, "lon": -1.8561379, "tags": {"natural": "cave_entrance"}}, {"type": "node", "id": 3459237351, "lat": 53.340963, "lon": -1.8221731, "tags": {"access": "permissive", "fee": "yes", "name": "Giants Hole", "natural": "cave_entrance", "wikidata": "Q5558327", "wikipedia": "en:Giant's Hole"}}, {"type": "node", "id": 3812032771, "lat": 53.3324296, "lon": -1.8437083, "tags": {"name": "P7", "natural": "cave_entrance"}}, {"type": "node", "id": 3812941300, "lat": 53.3307047, "lon": -1.8487721, "tags": {"name": "P4", "natural": "cave_entrance"}}, {"type": "node", "id": 3812941301, "lat": 53.3314676, "lon": -1.8471684, "tags": {"name": "P5", "natural": "cave_entrance"}}, {"type": "node", "id": 3812941302, "lat": 53.3319608, "lon": -1.845638, "tags": {"name": "P6", "natural": "cave_entrance"}}, {"type": "node", "id": 3813170954, "lat": 53.3365188, "lon": -1.8333966, "tags": {"name": "P9 [Christmas Swallet]", "natural": "cave_entrance"}}, {"type": "node", "id": 3813170955, "lat": 53.3376425, "lon": -1.8325379, "tags": {"name": "Snelslow Swallet", "natural": "cave_entrance"}}, {"type": "node", "id": 3814676455, "lat": 53.3248451, "lon": -1.827101, "tags": {"name": "Eldon Hole", "natural": "cave_entrance"}}, {"type": "node", "id": 3860766948, "lat": 53.3438878, "lon": -1.8113776, "tags": {"access": "unknown", "direction": "5", "fee": "no", "name": "Windy Knoll", "natural": "cave_entrance"}}, {"type": "node", "id": 4133309737, "lat": 53.222278, "lon": -1.6058762, "tags": {"name": "Grotto", "natural": "cave_entrance"}}, {"type": "node", "id": 4578417086, "lat": 53.3411564, "lon": -1.7948498, "tags": {"access": "yes", "direction": "170", "fee": "no", "name": "Suicide Cave(Horseshoe Cave)", "natural": "cave_entrance"}}, {"type": "node", "id": 4582056796, "lat": 53.3255437, "lon": -1.7401344, "tags": {"access": "permissive", "alt_name": "The Yeld;The Lumb", "name": "Bagshawe Resurgence", "natural": "cave_entrance"}}, {"type": "node", "id": 4583464987, "lat": 53.2789163, "lon": -1.6705888, "tags": {"name": "Carlswark Cavern Gin Entrance", "natural": "cave_entrance"}}, {"type": "node", "id": 4583464988, "lat": 53.2802453, "lon": -1.6737481, "tags": {"name": "Eyam Dale Shaft", "natural": "cave_entrance"}}, {"type": "node", "id": 5325965324, "lat": 53.3320799, "lon": -1.7804664, "tags": {"natural": "cave_entrance"}}, {"type": "node", "id": 6201237759, "lat": 53.4590977, "lon": -1.5410149, "tags": {"name": "Dragon\u2019s Den", "name:etymology:wikidata": "Q19085228", "natural": "cave_entrance"}}, {"type": "node", "id": 6223247554, "lat": 53.25264, "lon": -1.7576759, "tags": {"natural": "cave_entrance"}}, {"type": "node", "id": 6780743235, "lat": 53.278677, "lon": -1.6699996, "tags": {"natural": "cave_entrance"}}, {"type": "node", "id": 6782140440, "lat": 53.2806472, "lon": -1.6932838, "tags": {"name": "Tom\u2019s Cave", "natural": "cave_entrance"}}, {"type": "node", "id": 6898657775, "lat": 53.3288088, "lon": -1.8503505, "tags": {"name": "P2 [Sheepwash Cave]", "natural": "cave_entrance"}}, {"type": "node", "id": 6898681614, "lat": 53.32992, "lon": -1.8492932, "tags": {"name": "P3 [Gauries Hole]", "natural": "cave_entrance"}}, {"type": "node", "id": 6898711575, "lat": 53.3257815, "lon": -1.8511369, "tags": {"name": "Veer Shaft", "natural": "cave_entrance"}}, {"type": "node", "id": 6898740450, "lat": 53.3267765, "lon": -1.8634741, "tags": {"name": "P0", "natural": "cave_entrance"}}, {"type": "node", "id": 6898740451, "lat": 53.32676, "lon": -1.8528729, "tags": {"name": "Hilltop Shaft", "natural": "cave_entrance"}}, {"type": "node", "id": 6898750384, "lat": 53.3268588, "lon": -1.8501283, "tags": {"name": "Gautries Hill Pot", "natural": "cave_entrance"}}, {"type": "node", "id": 6898757686, "lat": 53.3256947, "lon": -1.8498032, "tags": {"name": "Rake Shaft", "natural": "cave_entrance"}}, {"type": "node", "id": 6900223815, "lat": 53.3381221, "lon": -1.8200446, "tags": {"name": "Frog Hole", "natural": "cave_entrance"}}, {"type": "node", "id": 9064681166, "lat": 53.3421436, "lon": -1.80394, "tags": {"access": "private", "name": "Winnats Head", "natural": "cave_entrance"}}, {"type": "node", "id": 9918808275, "lat": 53.3408606, "lon": -1.79507, "tags": {"natural": "cave_entrance"}}, {"type": "node", "id": 9918808277, "lat": 53.3416888, "lon": -1.8009241, "tags": {"natural": "cave_entrance"}}, {"type": "node", "id": 10642740478, "lat": 53.2801197, "lon": -1.6830472, "tags": {"name": "Streaks Pot - Top Entrance", "natural": "cave_entrance"}}, {"type": "node", "id": 10790264935, "lat": 53.3480248, "lon": -1.8005375, "tags": {"natural": "cave_entrance"}}, {"type": "node", "id": 11698659058, "lat": 53.3203815, "lon": -1.7424881, "tags": {"natural": "cave_entrance"}}, {"type": "node", "id": 11824036218, "lat": 53.2821634, "lon": -1.6778797, "tags": {"natural": "cave_entrance"}}]}