{"version": 0.6, "generator": "Overpass API 0.7.62.5 1bd436f1", "osm3s": {"timestamp_osm_base": "2025-04-16T18:54:36Z", "copyright": "The data included in this document is from www.openstreetmap.org. The data is made available under ODbL."}, "elements": [{"type": "node", "id": 367532102, "lat": 54.7375784, "lon": -2.6787486, "tags": {"access": "permissive", "fee": "no", "name": "Lacy's Caves", "natural": "cave_entrance", "tourism": "attraction", "wikidata": "Q6469162", "wikipedia": "en:Lacy's Caves"}}, {"type": "node", "id": 768167292, "lat": 54.5978938, "lon": -2.154789, "tags": {"fixme": "Check location", "name": "Wemmergill Hole", "natural": "cave_entrance"}}, {"type": "node", "id": 768167294, "lat": 54.6000194, "lon": -2.1606684, "tags": {"name": "Thack Pot", "natural": "cave_entrance", "source:name": "NLS-OS-NatGrid-110k-1940-60"}}, {"type": "node", "id": 1825151226, "lat": 54.7419652, "lon": -2.3062253, "tags": {"name": "Broad Pot", "natural": "cave_entrance", "source": "OS 1:25k"}}, {"type": "node", "id": 3586455444, "lat": 54.7261166, "lon": -2.089982, "tags": {"name": "Fairy Holes", "natural": "cave_entrance", "source": "Bing", "website": "https://cncc.org.uk/cave/fairy-holes-weardale"}}, {"type": "node", "id": 4951255776, "lat": 54.6746749, "lon": -2.2065441, "tags": {"name": "Moking Hurth", "natural": "cave_entrance"}}, {"type": "node", "id": 5795429867, "lat": 54.6530004, "lon": -2.1413952, "tags": {"name": "Gibson's Cave", "natural": "cave_entrance"}}, {"type": "node", "id": 7405465433, "lat": 54.5967834, "lon": -2.1975247, "tags": {"fixme": "which side of stream?", "name": "Withe Pot", "natural": "cave_entrance", "source:name": "NLS-OS-NatGrid-110k-1940-60"}}, {"type": "node", "id": 9391713166, "lat": 54.7674766, "lon": -2.528983, "tags": {"natural": "cave_entrance"}}]}