{"version": 0.6, "generator": "Overpass API 0.7.62.5 1bd436f1", "osm3s": {"timestamp_osm_base": "2025-04-16T18:57:45Z", "copyright": "The data included in this document is from www.openstreetmap.org. The data is made available under ODbL."}, "elements": [{"type": "node", "id": 2015046617, "lat": 54.3367001, "lon": -7.812875}, {"type": "node", "id": 2015046619, "lat": 54.336678, "lon": -7.8129214}, {"type": "node", "id": 2015046620, "lat": 54.3366729, "lon": -7.8128764}, {"type": "node", "id": 7110483569, "lat": 54.254111, "lon": -7.8192398, "tags": {"name": "Mastodon", "natural": "cave_entrance"}}, {"type": "node", "id": 7110483570, "lat": 54.2550582, "lon": -7.8182963, "tags": {"name": "Pollasillagh", "natural": "cave_entrance"}}, {"type": "node", "id": 7110483571, "lat": 54.2556874, "lon": -7.8187151, "tags": {"name": "John Thomas", "natural": "cave_entrance"}}, {"type": "node", "id": 8516338618, "lat": 54.2405087, "lon": -7.856393, "tags": {"name": "Polltullyard", "natural": "cave_entrance"}}, {"type": "node", "id": 8516363605, "lat": 54.2232194, "lon": -7.7600653, "tags": {"name": "Pigeon Pot", "natural": "cave_entrance"}}, {"type": "node", "id": 9026373613, "lat": 54.2636915, "lon": -7.8117095, "tags": {"name": "Cascades Rising", "natural": "cave_entrance"}}, {"type": "node", "id": 9153339630, "lat": 54.255589, "lon": -7.8166612, "tags": {"name": "Upper Cradle Hole", "natural": "cave_entrance"}}, {"type": "node", "id": 9153339631, "lat": 54.2559439, "lon": -7.8161328, "tags": {"access": "private", "name": "Lower Cradle Hole", "natural": "cave_entrance"}}, {"type": "node", "id": 11198798670, "lat": 54.2646536, "lon": -7.8874834, "tags": {"name": "Dolines/Sinkholes", "natural": "cave_entrance"}}, {"type": "node", "id": 11198798711, "lat": 54.2684248, "lon": -7.8826279, "tags": {"name": "Legnaveagh Sinkhole", "natural": "cave_entrance"}}, {"type": "node", "id": 11945398263, "lat": 54.2275906, "lon": -7.76161, "tags": {"natural": "cave_entrance"}}, {"type": "node", "id": 12256472269, "lat": 54.2347743, "lon": -7.9187783, "tags": {"name": "Legnashinna Cavern", "natural": "cave_entrance"}}, {"type": "node", "id": 12273133885, "lat": 54.1632282, "lon": -7.6600258, "tags": {"alt_name": "Tory Cave", "name": "Tory Hole", "natural": "cave_entrance"}}, {"type": "node", "id": 12273179398, "lat": 54.1857876, "lon": -7.7421101, "tags": {"name": "Pollnagollum", "natural": "cave_entrance"}}, {"type": "node", "id": 12273187597, "lat": 54.1649121, "lon": -7.649543, "tags": {"name": "Pollnagollum", "natural": "cave_entrance"}}, {"type": "node", "id": 12276904863, "lat": 54.2611702, "lon": -7.8511849, "tags": {"name": "Swallow Hole", "natural": "cave_entrance"}}, {"type": "node", "id": 12282855635, "lat": 54.2385477, "lon": -7.8895724, "tags": {"name": "Cavern", "natural": "cave_entrance"}}, {"type": "node", "id": 12319783036, "lat": 54.2420499, "lon": -7.8810425, "tags": {"name": "Caverns", "natural": "cave_entrance"}}, {"type": "node", "id": 12509101513, "lat": 54.1493913, "lon": -7.6598603, "tags": {"name": "Polldoo", "natural": "cave_entrance"}}, {"type": "node", "id": 12509101679, "lat": 54.1380659, "lon": -7.5901926, "tags": {"name": "Swallow Hole", "natural": "cave_entrance"}}, {"type": "node", "id": 12596303573, "lat": 54.2703214, "lon": -7.8754522, "tags": {"natural": "cave_entrance"}}, {"type": "way", "id": 190908035, "nodes": [2015046620, 2015046619, 2015046617, 2015046620], "tags": {"alt_name": "Poulnagollum", "name": "Pollnagollum Cave", "name:ga": "Poll na gColm", "natural": "cave_entrance", "tourism": "attraction", "wikidata": "Q7225700", "wikipedia": "en:Pollnagollum"}}]}