{"version": 0.6, "generator": "Overpass API 0.7.62.5 1bd436f1", "osm3s": {"timestamp_osm_base": "2025-04-16T18:46:29Z", "copyright": "The data included in this document is from www.openstreetmap.org. The data is made available under ODbL."}, "elements": [{"type": "node", "id": 373505863, "lat": 55.5837901, "lon": -2.8601347}, {"type": "node", "id": 373505866, "lat": 55.5836391, "lon": -2.8600884}, {"type": "node", "id": 373505869, "lat": 55.5836511, "lon": -2.8599655}, {"type": "node", "id": 373505872, "lat": 55.5838021, "lon": -2.8600119}, {"type": "node", "id": 1309607897, "lat": 55.5833857, "lon": -2.8577448, "tags": {"leisure": "fishing", "name": "Lower rocks"}}, {"type": "node", "id": 6646905116, "lat": 55.5833989, "lon": -2.8586767, "tags": {"leisure": "fishing", "name": "Upper Rocks"}}, {"type": "node", "id": 6646905119, "lat": 55.583175, "lon": -2.8561677, "tags": {"leisure": "fishing", "name": "Calfshaw Burn"}}, {"type": "node", "id": 7977819516, "lat": 55.8119067, "lon": -3.1264498, "tags": {"leisure": "fishing", "name": "Bailiffs Angling Association"}}, {"type": "way", "id": 33101502, "nodes": [373505863, 373505866, 373505869, 373505872, 373505863], "tags": {"building": "yes", "leisure": "fishing", "name": "Fairnilee Old Sawmill", "website": "https://www.fishpal.com/Scotland/Tweed/Fairnilee/"}}]}