{"version": 0.6, "generator": "Overpass API 0.7.62.5 1bd436f1", "osm3s": {"timestamp_osm_base": "2025-04-16T19:47:00Z", "copyright": "The data included in this document is from www.openstreetmap.org. The data is made available under ODbL."}, "elements": [{"type": "node", "id": 4073528691, "lat": 58.1927345, "lon": -8.5541493}, {"type": "node", "id": 4073528692, "lat": 58.3889839, "lon": -8.7167281}, {"type": "node", "id": 4073528693, "lat": 58.5838865, "lon": -9.6408379}, {"type": "node", "id": 4073530097, "lat": 58.0642436, "lon": -8.7525963}, {"type": "node", "id": 4073530098, "lat": 58.3890215, "lon": -9.7829095}, {"type": "node", "id": 4073531298, "lat": 58.1524408, "lon": -8.9215908}, {"type": "node", "id": 4073531299, "lat": 58.4718267, "lon": -9.7736296}, {"type": "node", "id": 4073531389, "lat": 58.6516012, "lon": -9.4866018}, {"type": "node", "id": 7366246681, "lat": 57.9086562, "lon": -8.4296731}, {"type": "node", "id": 7366246682, "lat": 57.9091443, "lon": -8.6991073}, {"type": "node", "id": 7366246683, "lat": 57.7659062, "lon": -8.6985441}, {"type": "node", "id": 7366246684, "lat": 57.7656217, "lon": -8.4305964}, {"type": "way", "id": 405131845, "nodes": [4073530098, 4073531299, 4073528693, 4073531389, 4073528692, 4073528691, 4073530097, 4073531298, 4073530098], "tags": {"boundary": "protected_area", "leisure": "nature_reserve", "name": "Sg\u00ecre Ghl\u00e8idhte Mhara Maoim Geikie \u204a Leathan Innse Ghall", "name:en": "Geikie Slide and Hebridean Slope Marine Protected Area", "official_name": "Geikie Slide and Hebridean Slope Marine Protected Area", "protect_class": "98", "protection_title": "Marine Protected Area"}}, {"type": "way", "id": 787896740, "nodes": [7366246681, 7366246682, 7366246683, 7366246684, 7366246681], "tags": {"boundary": "protected_area", "designation": "world_heritage_convention", "heritage": "1", "heritage:operator": "whc", "heritage:website": "http://whc.unesco.org/en/list/387", "name": "L\u00e0rach Dualchas na Cruinne ann an Hiort", "name:en": "St Kilda World Heritage Site", "name:gd": "L\u00e0rach Dualchas na Cruinne ann an Hiort", "protect_class": "98", "protection_title": "World Heritage Convention", "ref:whc": "387", "whc:criteria": "(iii)(v)(vii)(ix)(x)", "whc:inscription_date": "1986"}}]}