{"version": 0.6, "generator": "Overpass API 0.7.62.5 1bd436f1", "osm3s": {"timestamp_osm_base": "2025-04-16T18:58:45Z", "copyright": "The data included in this document is from www.openstreetmap.org. The data is made available under ODbL."}, "elements": [{"type": "node", "id": 1722979798, "lat": 53.3609465, "lon": -9.1955093, "tags": {"natural": "cave_entrance"}}, {"type": "node", "id": 3810097207, "lat": 53.0889983, "lon": -9.1437078, "tags": {"contact:facebook": "https://www.facebook.com/aillwee", "contact:twitter": "https://twitter.com/aillwee", "name": "Aillwee Cave", "natural": "cave_entrance", "phone": "+353-65-7077036", "tourism": "attraction", "website": "https://www.aillweecave.ie/", "wikidata": "Q405285"}}, {"type": "node", "id": 4052076221, "lat": 53.1210842, "lon": -8.9621004, "tags": {"natural": "cave_entrance", "ref": "1119NEK086"}}, {"type": "node", "id": 6041581992, "lat": 53.0663913, "lon": -9.222163, "tags": {"fee": "no", "name": "Cullaun 1 - Skylight", "natural": "cave_entrance"}}, {"type": "node", "id": 6041598901, "lat": 53.0668196, "lon": -9.2220029, "tags": {"fee": "no", "name": "Cullaun 1", "natural": "cave_entrance"}}, {"type": "node", "id": 7710702919, "lat": 53.0617364, "lon": -9.2200187, "tags": {"name": "Cullaun 2", "natural": "cave_entrance"}}, {"type": "node", "id": 10621721791, "lat": 53.1880185, "lon": -8.8436039, "tags": {"archaeological_site": "souterrain", "heritage": "2", "heritage:operator": "IE:smr", "historic": "archaeological_site", "natural": "cave_entrance", "ref:IE:smr": "GA103-139003", "source": "British War office map"}}, {"type": "node", "id": 11333325260, "lat": 53.2926072, "lon": -9.0248742, "tags": {"name": "Cooper's Cave", "natural": "cave_entrance"}}]}