{"version": 0.6, "generator": "Overpass API 0.7.62.5 1bd436f1", "osm3s": {"timestamp_osm_base": "2025-04-16T18:54:36Z", "copyright": "The data included in this document is from www.openstreetmap.org. The data is made available under ODbL."}, "elements": [{"type": "node", "id": 336683906, "lat": 51.7972664, "lon": -3.0878621, "tags": {"fee": "no", "name": "Siambri Ddu", "name:en": "Black Cavern", "natural": "cave_entrance"}}, {"type": "node", "id": 552321333, "lat": 51.8337935, "lon": -3.1731916, "tags": {"access": "yes", "name": "Eglwys Faen (Main Entrance)", "natural": "cave_entrance"}}, {"type": "node", "id": 612319802, "lat": 51.8357279, "lon": -3.1804507, "tags": {"access": "private", "fee": "yes", "name": "Agen Allwedd (Ogof Gam)", "natural": "cave_entrance", "source": "gps", "website": "https://chelseaspelaeo.org/caves/agen-allwedd"}}, {"type": "node", "id": 1446519572, "lat": 51.8288119, "lon": -3.2672106, "tags": {"access": "yes", "description": "Historic cave with plaque.\nEvery chamber is easily accessible to all. The deeper passages via trained cavers only via crawl spaces", "direction": "157", "fee": "no", "name": "Chartist Cave", "name:cy": "Ogof Fawr", "natural": "cave_entrance", "wikidata": "Q5086925", "wikipedia": "en:Chartist Cave"}}, {"type": "node", "id": 1518130978, "lat": 51.8306921, "lon": -3.1547192, "tags": {"access": "yes", "direction": "25", "fee": "no", "name": "Ogof Daren Cilau", "natural": "cave_entrance", "wikidata": "Q7080190", "wikipedia": "en:Ogof y Daren Cilau"}}, {"type": "node", "id": 1518255758, "lat": 51.8278584, "lon": -3.2645754, "tags": {"access": "yes", "description": "Swallow hole cave, ends about 5-6m below ground in a clay mound", "direction": "95", "fee": "no", "name": "Crescent Cave", "natural": "cave_entrance"}}, {"type": "node", "id": 1566548455, "lat": 51.6870538, "lon": -3.404262, "tags": {"name": "Disused Mine Shaft", "natural": "cave_entrance"}}, {"type": "node", "id": 6853287050, "lat": 51.595145, "lon": -3.5157457, "tags": {"name": "Llandyfodwg Caves (Dimbath ?)", "natural": "cave_entrance"}}, {"type": "node", "id": 7009780171, "lat": 51.7860657, "lon": -3.3935321, "tags": {"access": "private", "name": "Ogof y Ci", "natural": "cave_entrance", "note": "Call at farm"}}, {"type": "node", "id": 10136264630, "lat": 51.8285775, "lon": -3.2685759, "tags": {"natural": "cave_entrance"}}, {"type": "node", "id": 10136396273, "lat": 51.8381584, "lon": -3.2222079, "tags": {"access": "yes", "fee": "no", "natural": "cave_entrance"}}, {"type": "node", "id": 10136396274, "lat": 51.8379983, "lon": -3.221929, "tags": {"access": "yes", "direction": "-35", "fee": "no", "natural": "cave_entrance"}}, {"type": "node", "id": 10137466390, "lat": 51.8351108, "lon": -3.2807092, "tags": {"natural": "cave_entrance"}}, {"type": "node", "id": 10137466429, "lat": 51.8328073, "lon": -3.2786327, "tags": {"natural": "cave_entrance"}}, {"type": "node", "id": 11097170377, "lat": 51.8093111, "lon": -3.1306964, "tags": {"access": "private", "direction": "165", "fee": "yes", "name": "Ogof Craig a Ffynnon", "natural": "cave_entrance"}}, {"type": "node", "id": 11519995294, "lat": 51.8338333, "lon": -3.1727252, "tags": {"access": "yes", "name": "Eglwys Faen (Oval Entrance)", "natural": "cave_entrance"}}, {"type": "node", "id": 11519995295, "lat": 51.8336044, "lon": -3.1721545, "tags": {"access": "yes", "name": "Eglwys Faen (Waterfall Entrance)", "natural": "cave_entrance"}}, {"type": "node", "id": 11559266067, "lat": 51.8379317, "lon": -3.2221376, "tags": {"access": "yes", "direction": "355", "fee": "no", "natural": "cave_entrance"}}, {"type": "node", "id": 11625032718, "lat": 51.818022, "lon": -3.3286675, "tags": {"access": "yes", "direction": "345", "fee": "no", "length": "1608", "name": "Ogof Tarddiad Rhymni", "natural": "cave_entrance"}}, {"type": "node", "id": 11630172424, "lat": 51.8177944, "lon": -3.3296863, "tags": {"access": "yes", "fee": "no", "name": "Ogof Gwebedyn", "natural": "cave_entrance"}}, {"type": "node", "id": 11635752118, "lat": 51.830603, "lon": -3.2483503, "tags": {"name": "Ogof Cynnes", "natural": "cave_entrance"}}, {"type": "node", "id": 11635773388, "lat": 51.8297558, "lon": -3.3006849, "tags": {"access": "yes", "direction": "0", "fee": "no", "name": "Ogof Pyrgad", "natural": "cave_entrance"}}, {"type": "node", "id": 11635773398, "lat": 51.8126555, "lon": -3.3076789, "tags": {"access": "yes", "fee": "no", "name": "Ogof Ap Robert", "natural": "cave_entrance"}}, {"type": "node", "id": 11635792019, "lat": 51.8372503, "lon": -3.1880221, "tags": {"access": "yes", "alt_name": "Pwll-y-pasc", "fee": "no", "name": "Pwll y Pasg", "natural": "cave_entrance"}}, {"type": "node", "id": 11635792020, "lat": 51.8338835, "lon": -3.1799427, "tags": {"name": "Pwll y Gwynt", "natural": "cave_entrance"}}, {"type": "node", "id": 11635792021, "lat": 51.8334485, "lon": -3.1597176, "tags": {"name": "Ogof Gwaliau Gwynion", "natural": "cave_entrance"}}, {"type": "node", "id": 11635792022, "lat": 51.8299295, "lon": -3.1514142, "tags": {"access": "yes", "ele": "408", "fee": "no", "name": "Ogof Pen Eryr", "natural": "cave_entrance"}}, {"type": "node", "id": 11635792023, "lat": 51.8273498, "lon": -3.1468064, "tags": {"ele": "410", "name": "Ogof Cnwc Price's Old Dig", "natural": "cave_entrance"}}, {"type": "node", "id": 11635792024, "lat": 51.8063708, "lon": -3.1381051, "tags": {"name": "Ogof Capel", "natural": "cave_entrance"}}, {"type": "node", "id": 11635792025, "lat": 51.8054263, "lon": -3.137088, "tags": {"name": "Shakespeare's Cave", "natural": "cave_entrance"}}, {"type": "node", "id": 11635792026, "lat": 51.8050101, "lon": -3.139739, "tags": {"name": "Elm Hole", "natural": "cave_entrance"}}, {"type": "node", "id": 11635792027, "lat": 51.8062545, "lon": -3.1432437, "tags": {"name": "Ogof Rhaeadr Ddu", "natural": "cave_entrance"}}, {"type": "node", "id": 11635792028, "lat": 51.8056623, "lon": -3.1431856, "tags": {"name": "Waterfall Cave", "natural": "cave_entrance"}}, {"type": "node", "id": 11635792029, "lat": 51.8045824, "lon": -3.1429562, "tags": {"name": "Ogof Clogwyn", "natural": "cave_entrance"}}, {"type": "node", "id": 11635792030, "lat": 51.804335, "lon": -3.1464245, "tags": {"name": "Ogof Nant Rhin", "natural": "cave_entrance"}}, {"type": "node", "id": 11635792031, "lat": 51.8064617, "lon": -3.1481509, "tags": {"name": "Ogof Pont Gam", "natural": "cave_entrance"}}, {"type": "node", "id": 11635792032, "lat": 51.8094835, "lon": -3.0978995, "tags": {"name": "Ogof Dwy Sir", "natural": "cave_entrance"}}, {"type": "node", "id": 11635792033, "lat": 51.7996962, "lon": -3.0941976, "tags": {"access": "permissive", "fee": "no", "name": "Ogof Draenen", "natural": "cave_entrance", "wikidata": "Q11796693", "wikipedia": "en:Ogof_Draenen"}}, {"type": "node", "id": 11635792034, "lat": 51.7820104, "lon": -3.3904792, "tags": {"name": "Ogof Rhyd Sych", "natural": "cave_entrance"}}, {"type": "node", "id": 11639110428, "lat": 51.8338132, "lon": -3.173044, "tags": {"name": "Eglwys Faen Crawl Entrance", "natural": "cave_entrance"}}, {"type": "node", "id": 11642479848, "lat": 51.8354203, "lon": -3.1802639, "tags": {"access": "yes", "natural": "cave_entrance"}}, {"type": "node", "id": 11646954638, "lat": 51.8358073, "lon": -3.1608381, "tags": {"access": "yes", "direction": "350", "fee": "no", "name": "Fell's Swoop", "natural": "cave_entrance"}}]}