{"version": 0.6, "generator": "Overpass API 0.7.62.5 1bd436f1", "osm3s": {"timestamp_osm_base": "2025-04-16T22:04:52Z", "copyright": "The data included in this document is from www.openstreetmap.org. The data is made available under ODbL."}, "elements": [{"type": "node", "id": 296018657, "lat": 52.1553442, "lon": 0.2057422, "tags": {"created_by": "Potlatch 0.10b", "name": "Copley Hill", "natural": "hill", "place": "locality", "source": "npe"}}, {"type": "node", "id": 296018698, "lat": 52.149079, "lon": 0.2094378, "tags": {"created_by": "Potlatch 0.10b", "name": "Meggs Hill", "natural": "hill", "place": "locality", "source": "npe"}}, {"type": "node", "id": 296018804, "lat": 52.1541118, "lon": 0.1870665, "tags": {"name": "Wormwood Hill", "natural": "hill", "note": "Wormwood Hill tumulus is registered as a scheduled monument", "place": "locality", "source": "npe"}}, {"type": "node", "id": 296018814, "lat": 52.1656147, "lon": 0.1996506, "tags": {"name": "Mag's Hill", "natural": "hill", "source": "npe"}}, {"type": "node", "id": 296019301, "lat": 52.1684034, "lon": 0.3209319, "tags": {"created_by": "Potlatch 0.10b", "name": "Chilly Hill", "natural": "hill", "place": "locality"}}, {"type": "node", "id": 296019734, "lat": 52.1153597, "lon": 0.2670302, "tags": {"created_by": "Potlatch 0.10b", "name": "Furze Hill", "natural": "hill", "place": "locality", "source": "npe"}}, {"type": "node", "id": 296019888, "lat": 52.1272486, "lon": 0.1102347, "tags": {"name": "Cockle Hill", "natural": "hill", "place": "locality", "source": "npe"}}, {"type": "node", "id": 296020075, "lat": 52.1071631, "lon": 0.1194014, "tags": {"historic": "archaeological_site", "name": "Chronicle Hills", "natural": "hill", "note": "Burial mounds", "source": "OS 1:25k"}}, {"type": "node", "id": 296020154, "lat": 52.1305302, "lon": 0.0901268, "tags": {"name": "Harston Hill", "natural": "hill", "place": "locality", "source": "npe"}}, {"type": "node", "id": 296020327, "lat": 52.1151489, "lon": 0.0194945, "tags": {"created_by": "Potlatch 0.10b", "name": "Brimble Hill", "natural": "hill", "place": "locality", "source": "npe"}}, {"type": "node", "id": 296020428, "lat": 52.1373328, "lon": 0.0193228, "tags": {"created_by": "Potlatch 0.10b", "name": "Cracknow Hill", "natural": "hill", "place": "locality", "source": "npe"}}, {"type": "node", "id": 296020595, "lat": 52.1435487, "lon": -0.0052248, "tags": {"created_by": "Potlatch 0.10b", "name": "Fox Hill", "natural": "hill", "place": "locality", "source": "npe"}}, {"type": "node", "id": 296020706, "lat": 52.1464601, "lon": -0.0131319, "tags": {"name": "Thorn Hill", "natural": "hill", "place": "locality", "source": "npe"}}, {"type": "node", "id": 296020723, "lat": 52.1726147, "lon": -0.0144086, "tags": {"created_by": "Potlatch 0.10b", "name": "Claypit Hill", "natural": "hill", "place": "locality", "source": "npe"}}, {"type": "node", "id": 297817461, "lat": 52.1798842, "lon": 0.2080401, "tags": {"created_by": "Potlatch 0.10b", "name": "Mill Hill", "natural": "hill", "place": "locality", "source": "npe"}}, {"type": "node", "id": 368032863, "lat": 52.2048555, "lon": 0.1609187, "tags": {"name": "Old Rifle Butts", "natural": "hill"}}, {"type": "node", "id": 529678254, "lat": 52.1085128, "lon": 0.0568056, "tags": {"name": "West Hill", "natural": "hill", "source": "npe"}}, {"type": "node", "id": 678882870, "lat": 52.094523, "lon": -0.0067005, "tags": {"name": "Mettle Hill", "natural": "hill", "place": "locality", "source": "NPE", "source:name": "NPE"}}, {"type": "node", "id": 865442401, "lat": 52.0851061, "lon": 0.0643972, "tags": {"man_made": "survey_point", "name": "Manor Farm Hill", "natural": "hill", "ref": "10671", "source": "survey (August 2010)", "source:name": "local_knowledge", "source:ref": "survey (August 2010)", "survey_point": "pillar;trig_point"}}, {"type": "node", "id": 1882038332, "lat": 52.1578117, "lon": 0.183484, "tags": {"ele": "74", "name": "Wandlebury Hill", "natural": "hill", "wikidata": "Q7967272", "wikipedia": "en:Wandlebury Hill"}}]}