{"version": 0.6, "generator": "Overpass API 0.7.62.5 1bd436f1", "osm3s": {"timestamp_osm_base": "2025-04-16T18:53:33Z", "copyright": "The data included in this document is from www.openstreetmap.org. The data is made available under ODbL."}, "elements": [{"type": "node", "id": 766834132, "lat": 52.8009955, "lon": -4.4710029, "tags": {"natural": "cave_entrance"}}, {"type": "node", "id": 766837734, "lat": 52.8042256, "lon": -4.4590724, "tags": {"natural": "cave_entrance"}}, {"type": "node", "id": 3154949067, "lat": 53.138619, "lon": -4.4132985, "tags": {"natural": "cave_entrance"}}, {"type": "node", "id": 3391892182, "lat": 53.2063757, "lon": -4.497964, "tags": {"access": "permissive", "name": "Twll Bwgan cave", "natural": "cave_entrance"}}, {"type": "node", "id": 3694805764, "lat": 52.7988805, "lon": -4.472773, "tags": {"natural": "cave_entrance"}}, {"type": "node", "id": 5694539085, "lat": 53.0734109, "lon": -4.301392, "tags": {"natural": "cave_entrance"}}, {"type": "node", "id": 7858951933, "lat": 52.8007508, "lon": -4.7214961, "tags": {"name": "Bwrdd Mawr", "natural": "cave_entrance"}}, {"type": "node", "id": 7858951940, "lat": 52.7969915, "lon": -4.6851007, "tags": {"name": "Ogof Lleuddad", "natural": "cave_entrance"}}, {"type": "node", "id": 9383908382, "lat": 52.9996818, "lon": -4.4282952, "tags": {"access": "yes", "direction": "57", "ele": "10", "fee": "no", "natural": "cave_entrance"}}, {"type": "node", "id": 12724172858, "lat": 53.1601868, "lon": -4.429771, "tags": {"name": "Ogof Ffidler", "name:cy": "Ogof Ffidler", "name:en": "Fiddler's Cave", "natural": "cave_entrance"}}]}