{"version": 0.6, "generator": "Overpass API 0.7.62.5 1bd436f1", "osm3s": {"timestamp_osm_base": "2025-04-16T18:58:45Z", "copyright": "The data included in this document is from www.openstreetmap.org. The data is made available under ODbL."}, "elements": [{"type": "node", "id": 1973668681, "lat": 53.0653863, "lon": -9.2473532, "tags": {"name": "Poll Elva", "natural": "cave_entrance"}}, {"type": "node", "id": 1973668682, "lat": 53.0771586, "lon": -9.2513564, "tags": {"logainm:ref": "104270", "logainm:url": "https://www.logainm.ie/104270.aspx", "name": "Poulnagollum", "name:en": "Poulnagollum", "name:ga": "Poll na gColm", "natural": "cave_entrance", "wikidata": "Q7225700"}}, {"type": "node", "id": 6147235457, "lat": 53.0847114, "lon": -9.2810095, "tags": {"fee": "no", "name": "Faunarooska", "natural": "cave_entrance"}}, {"type": "node", "id": 6462929496, "lat": 53.059666, "lon": -9.3004049, "tags": {"natural": "cave_entrance"}}, {"type": "node", "id": 6462929497, "lat": 53.0531724, "lon": -9.3072505, "tags": {"natural": "cave_entrance"}}, {"type": "node", "id": 7713184813, "lat": 53.0749493, "lon": -9.3003913, "tags": {"alt_name": "Cave of the Deer", "name": "Poll na fhia", "natural": "cave_entrance"}}, {"type": "node", "id": 7713184814, "lat": 53.0738582, "lon": -9.2994752, "tags": {"alt_name": "Cave of the steps", "name": "Poll na gC\u00e9im", "natural": "cave_entrance", "note": "As of 2020/7/12 - cave entrance located under the steel panel and pallet."}}, {"type": "node", "id": 7713185327, "lat": 53.0830014, "lon": -9.2827563, "tags": {"name": "Pollbailiny", "natural": "cave_entrance"}}, {"type": "node", "id": 7714024733, "lat": 53.0756284, "lon": -9.31041, "tags": {"name": "Pollnagree", "natural": "cave_entrance"}}, {"type": "node", "id": 7714097998, "lat": 53.0563606, "lon": -9.3052406, "tags": {"name": "Polldonough (B7)", "natural": "cave_entrance"}}, {"type": "node", "id": 7714097999, "lat": 53.0566099, "lon": -9.3052505, "tags": {"name": "( Polldonough ?)", "natural": "cave_entrance"}}, {"type": "node", "id": 7714105585, "lat": 53.0662337, "lon": -9.319182, "tags": {"fixme": "Correct location and indeed a cave?", "name": "(Poulomega ?)", "natural": "cave_entrance"}}, {"type": "node", "id": 7714105586, "lat": 53.0656656, "lon": -9.3190207, "tags": {"fixme": "Correct location and indeed a cave?", "name": "( Poulomega ? )", "natural": "cave_entrance"}}, {"type": "node", "id": 7714105587, "lat": 53.066288, "lon": -9.318909, "tags": {"fixme": "Correct location and indeed a cave?", "name": "( Poulomega ?)", "natural": "cave_entrance"}}, {"type": "node", "id": 7887579781, "lat": 53.0577304, "lon": -9.2533817, "tags": {"name": "Poll Cragreagh", "natural": "cave_entrance", "note": "Access point under the cap stones, in the brambles"}}]}